[{"external_id":"24532453","source":"zillow_hasdata","address":"2859 E Maple Rd APT 13","city":"Birmingham","state":"MI","zipcode":"48009","lat":42.547707,"lon":-83.18738,"list_price":127500.0,"dscr":2.083502065809528,"cash_on_cash_return":0.22012939581003424,"breakeven_occupancy_pct":0.6523250215750673,"rank_score":3.6258699486711023,"label":"buy","reason":"High risk-adjusted score with strong coverage and returns.","dom":21.0},{"external_id":"2073305388","source":"zillow_hasdata","address":"1727 E Forteen Mile Rd","city":"Birmingham","state":"MI","zipcode":"48009","lat":42.532536,"lon":-83.19815,"list_price":134900.0,"dscr":1.9692106255797983,"cash_on_cash_return":0.19690940714740832,"breakeven_occupancy_pct":0.6682703739859126,"rank_score":3.318544699001369,"label":"buy","reason":"High risk-adjusted score with strong coverage and returns.","dom":22.0},{"external_id":"24531744","source":"zillow_hasdata","address":"361 N Eton St APT 2","city":"Birmingham","state":"MI","zipcode":"48009","lat":42.549374,"lon":-83.19708,"list_price":190000.0,"dscr":1.398139544161657,"cash_on_cash_return":0.0808879097419228,"breakeven_occupancy_pct":0.7869986061261253,"rank_score":2.661052494571226,"label":"buy","reason":"Attractive profile; meets target safety and return thresholds.","dom":74.0},{"external_id":"24530858","source":"zillow_hasdata","address":"1225 Derby Rd APT 1","city":"Birmingham","state":"MI","zipcode":"48009","lat":42.55404,"lon":-83.20411,"list_price":210000.0,"dscr":1.2649833970986417,"cash_on_cash_return":0.053835278162975404,"breakeven_occupancy_pct":0.8300941531824638,"rank_score":2.4654502705486068,"label":"maybe","reason":"Workable but requires deeper underwriting or better terms.","dom":12.0},{"external_id":"2100726082","source":"zillow_hasdata","address":"850 N Adams Rd","city":"Birmingham","state":"MI","zipcode":"48009","lat":42.554085,"lon":-83.20547,"list_price":199900.0,"dscr":1.3288970154613047,"cash_on_cash_return":0.06682027065922355,"breakeven_occupancy_pct":0.8083309019190128,"rank_score":2.3635244941056417,"label":"maybe","reason":"Workable but requires deeper underwriting or better terms.","dom":21.0},{"external_id":"24530830","source":"zillow_hasdata","address":"850 N Adams Rd UNIT 1","city":"Birmingham","state":"MI","zipcode":"48009","lat":42.55389,"lon":-83.20602,"list_price":199900.0,"dscr":1.3288970154613047,"cash_on_cash_return":0.06682027065922355,"breakeven_occupancy_pct":0.8083309019190128,"rank_score":2.3635244941056417,"label":"maybe","reason":"Workable but requires deeper underwriting or better terms.","dom":22.0},{"external_id":"238525987","source":"zillow_hasdata","address":"475 S Adams Rd","city":"Birmingham","state":"MI","zipcode":"48009","lat":42.54426,"lon":-83.20528,"list_price":229900.0,"dscr":1.1554872265798817,"cash_on_cash_return":0.03158951913731207,"breakeven_occupancy_pct":0.8729742225035207,"rank_score":1.6778399186072024,"label":"maybe","reason":"Workable but requires deeper underwriting or better terms.","dom":4.0},{"external_id":"70879485","source":"zillow_hasdata","address":"475 S Adams Rd APT 21","city":"Birmingham","state":"MI","zipcode":"48009","lat":42.54426,"lon":-83.20528,"list_price":234900.0,"dscr":1.1308919258863974,"cash_on_cash_return":0.02659262171342242,"breakeven_occupancy_pct":0.8837481092676053,"rank_score":1.5931818102574338,"label":"maybe","reason":"Workable but requires deeper underwriting or better terms.","dom":81.0},{"external_id":"24533703","source":"zillow_hasdata","address":"1678 Taunton Rd","city":"Birmingham","state":"MI","zipcode":"48009","lat":42.53468,"lon":-83.19993,"list_price":439900.0,"dscr":0.6038793211882582,"cash_on_cash_return":-0.08047774752468088,"breakeven_occupancy_pct":1.3254774665950755,"rank_score":1.2600905662295627,"label":"pass","reason":"Negative cashflow in base case.","dom":16.0},{"external_id":"63651938","source":"zillow_hasdata","address":"1111 N Old Woodward Ave UNIT 26","city":"Birmingham","state":"MI","zipcode":"48009","lat":42.555935,"lon":-83.2227,"list_price":320000.0,"dscr":0.8301453543459836,"cash_on_cash_return":-0.034508471837024594,"breakeven_occupancy_pct":1.067119661992326,"rank_score":1.2431488644547444,"label":"pass","reason":"Negative cashflow in base case.","dom":49.0},{"external_id":"24532179","source":"zillow_hasdata","address":"671 Coolidge Hwy","city":"Birmingham","state":"MI","zipcode":"48009","lat":42.552017,"lon":-83.18698,"list_price":449000.0,"dscr":0.5916403416274272,"cash_on_cash_return":-0.08296427640272612,"breakeven_occupancy_pct":1.3450859405057094,"rank_score":1.2000645855899807,"label":"pass","reason":"Negative cashflow in base case.","dom":29.0},{"external_id":"24533946","source":"zillow_hasdata","address":"2070 Sheffield Rd","city":"Birmingham","state":"MI","zipcode":"48009","lat":42.535492,"lon":-83.19494,"list_price":449000.0,"dscr":0.5916403416274272,"cash_on_cash_return":-0.08296427640272612,"breakeven_occupancy_pct":1.3450859405057094,"rank_score":1.0638251669358891,"label":"pass","reason":"Negative cashflow in base case.","dom":50.0},{"external_id":"24531868","source":"zillow_hasdata","address":"2100 Derby Rd","city":"Birmingham","state":"MI","zipcode":"48009","lat":42.553738,"lon":-83.195175,"list_price":469000.0,"dscr":0.5664104763128247,"cash_on_cash_return":-0.08809009497135294,"breakeven_occupancy_pct":1.388181487562048,"rank_score":0.9710626276298955,"label":"pass","reason":"Negative cashflow in base case.","dom":11.0},{"external_id":"24507702","source":"zillow_hasdata","address":"1109 Bird Ave","city":"Birmingham","state":"MI","zipcode":"48009","lat":42.53294,"lon":-83.20545,"list_price":440000.0,"dscr":0.6037420758879881,"cash_on_cash_return":-0.0805056309279337,"breakeven_occupancy_pct":1.3256929443303571,"rank_score":0.965673458966256,"label":"pass","reason":"Negative cashflow in base case.","dom":33.0},{"external_id":"24531360","source":"zillow_hasdata","address":"729 N Eton St","city":"Birmingham","state":"MI","zipcode":"48009","lat":42.55216,"lon":-83.197014,"list_price":362000.0,"dscr":0.7338301474881624,"cash_on_cash_return":-0.05407632404696932,"breakeven_occupancy_pct":1.1576203108106367,"rank_score":0.9134135759831846,"label":"pass","reason":"Negative cashflow in base case.","dom":44.0},{"external_id":"24533500","source":"zillow_hasdata","address":"1458 Chapin Ave","city":"Birmingham","state":"MI","zipcode":"48009","lat":42.535767,"lon":-83.20161,"list_price":425000.0,"dscr":0.6250506197428584,"cash_on_cash_return":-0.07617648654290694,"breakeven_occupancy_pct":1.293371284038103,"rank_score":0.9043336601141374,"label":"pass","reason":"Negative cashflow in base case.","dom":85.0},{"external_id":"455932199","source":"zillow_hasdata","address":"1745 Webster St","city":"Birmingham","state":"MI","zipcode":"48009","lat":42.541096,"lon":-83.19877,"list_price":463000.0,"dscr":0.5737505688784337,"cash_on_cash_return":-0.08659884710700297,"breakeven_occupancy_pct":1.3752528234451462,"rank_score":0.849870317150185,"label":"pass","reason":"Negative cashflow in base case.","dom":115.0},{"external_id":"24533791","source":"zillow_hasdata","address":"1544 Sheffield Rd","city":"Birmingham","state":"MI","zipcode":"48009","lat":42.532597,"lon":-83.19932,"list_price":499900.0,"dscr":0.5313993066427581,"cash_on_cash_return":-0.09520312951856089,"breakeven_occupancy_pct":1.454764107764091,"rank_score":0.8426173292545883,"label":"pass","reason":"Negative cashflow in base case.","dom":48.0},{"external_id":"63651971","source":"zillow_hasdata","address":"1115 N Old Woodward Ave UNIT 76","city":"Birmingham","state":"MI","zipcode":"48009","lat":42.555935,"lon":-83.2227,"list_price":299900.0,"dscr":0.88578363918211,"cash_on_cash_return":-0.023204735174803832,"breakeven_occupancy_pct":1.0238086372007056,"rank_score":0.8417469914134741,"label":"pass","reason":"Negative cashflow in base case.","dom":30.0},{"external_id":"24533558","source":"zillow_hasdata","address":"1268 Davis Ave","city":"Birmingham","state":"MI","zipcode":"48009","lat":42.5341,"lon":-83.20402,"list_price":525000.0,"dscr":0.5059933588394567,"cash_on_cash_return":-0.10036472183702458,"breakeven_occupancy_pct":1.5088490193197959,"rank_score":0.8145967449366402,"label":"pass","reason":"Negative cashflow in base case.","dom":39.0},{"external_id":"63651916","source":"zillow_hasdata","address":"1111 N Old Woodward Ave UNIT 4","city":"Birmingham","state":"MI","zipcode":"48009","lat":42.555935,"lon":-83.2227,"list_price":365000.0,"dscr":0.7277986668238762,"cash_on_cash_return":-0.05530170813839444,"breakeven_occupancy_pct":1.1640846428690876,"rank_score":0.7730139437464854,"label":"pass","reason":"Negative cashflow in base case.","dom":140.0},{"external_id":"24532665","source":"zillow_hasdata","address":"1751 Villa Rd","city":"Birmingham","state":"MI","zipcode":"48009","lat":42.545452,"lon":-83.19879,"list_price":549000.0,"dscr":0.48387343058418,"cash_on_cash_return":-0.10485871090806281,"breakeven_occupancy_pct":1.5605636757874022,"rank_score":0.7380121196235938,"label":"pass","reason":"Negative cashflow in base case.","dom":5.0},{"external_id":"24533975","source":"zillow_hasdata","address":"1665 Mansfield Rd","city":"Birmingham","state":"MI","zipcode":"48009","lat":42.534607,"lon":-83.193726,"list_price":439999.0,"dscr":0.6037434480321882,"cash_on_cash_return":-0.08050535215663894,"breakeven_occupancy_pct":1.3256907895530043,"rank_score":0.6997159236723631,"label":"pass","reason":"Negative cashflow in base case.","dom":2.0},{"external_id":"59193807","source":"zillow_hasdata","address":"1489 Holland St","city":"Birmingham","state":"MI","zipcode":"48009","lat":42.54164,"lon":-83.20211,"list_price":749900.0,"dscr":0.35424258353209065,"cash_on_cash_return":-0.1311951258908984,"breakeven_occupancy_pct":1.9934584459683227,"rank_score":0.613612870884026,"label":"pass","reason":"Negative cashflow in base case.","dom":12.0},{"external_id":"24533666","source":"zillow_hasdata","address":"1451 E Forteen Mile Rd","city":"Birmingham","state":"MI","zipcode":"48009","lat":42.532234,"lon":-83.20185,"list_price":279000.0,"dscr":0.9521380408269348,"cash_on_cash_return":-0.009723861621970814,"breakeven_occupancy_pct":0.9787737905268318,"rank_score":0.5952637532583197,"label":"pass","reason":"Negative cashflow in base case.","dom":45.0},{"external_id":"2078387223","source":"zillow_hasdata","address":"255 Southfield Rd","city":"Birmingham","state":"MI","zipcode":"48009","lat":42.54537,"lon":-83.220146,"list_price":619900.0,"dscr":0.4285312363134615,"cash_on_cash_return":-0.11610229241292391,"breakeven_occupancy_pct":1.7133373901021225,"rank_score":0.5561712463189213,"label":"pass","reason":"Negative cashflow in base case.","dom":86.0},{"external_id":"456704579","source":"zillow_hasdata","address":"251-253 E Forteen Mile Rd","city":"Birmingham","state":"MI","zipcode":"48009","lat":42.531914,"lon":-83.21278,"list_price":535000.0,"dscr":0.4965355390480651,"cash_on_cash_return":-0.10228621716412738,"breakeven_occupancy_pct":1.530396792847965,"rank_score":0.4898413612398935,"label":"pass","reason":"Negative cashflow in base case.","dom":17.0},{"external_id":"24505233","source":"zillow_hasdata","address":"1777 Fairway Dr","city":"Birmingham","state":"MI","zipcode":"48009","lat":42.53672,"lon":-83.23532,"list_price":735000.0,"dscr":0.3614238277424691,"cash_on_cash_return":-0.12973615040845313,"breakeven_occupancy_pct":1.9613522634113505,"rank_score":0.48787412381732576,"label":"pass","reason":"Negative cashflow in base case.","dom":33.0},{"external_id":"444826992","source":"zillow_hasdata","address":"1815 E Lincoln St","city":"Birmingham","state":"MI","zipcode":"48009","lat":42.539474,"lon":-83.19784,"list_price":499000.0,"dscr":0.5323577422659616,"cash_on_cash_return":-0.09500840921177406,"breakeven_occupancy_pct":1.4528248081465558,"rank_score":0.451320244691989,"label":"pass","reason":"Negative cashflow in base case.","dom":33.0},{"external_id":"24507371","source":"zillow_hasdata","address":"1106 Bennaville Ave","city":"Birmingham","state":"MI","zipcode":"48009","lat":42.536583,"lon":-83.20567,"list_price":735900.0,"dscr":0.36098180920059086,"cash_on_cash_return":-0.12982595298256067,"breakeven_occupancy_pct":1.963291563028886,"rank_score":0.40900395025290887,"label":"pass","reason":"Negative cashflow in base case.","dom":10.0},{"external_id":"24504457","source":"zillow_hasdata","address":"397 S Cranbrook Rd","city":"Birmingham","state":"MI","zipcode":"48009","lat":42.54313,"lon":-83.24521,"list_price":785000.0,"dscr":0.3384032017716112,"cash_on_cash_return":-0.13441312948033665,"breakeven_occupancy_pct":2.069091131052197,"rank_score":0.3830550646376769,"label":"pass","reason":"Negative cashflow in base case.","dom":48.0},{"external_id":"24504627","source":"zillow_hasdata","address":"120 Westchester Way","city":"Birmingham","state":"MI","zipcode":"48009","lat":42.54545,"lon":-83.23813,"list_price":675000.0,"dscr":0.3935503902084663,"cash_on_cash_return":-0.12320916628146902,"breakeven_occupancy_pct":1.832065622242335,"rank_score":0.34086985126056635,"label":"pass","reason":"Negative cashflow in base case.","dom":351.0},{"external_id":"24505855","source":"zillow_hasdata","address":"532 Wallace St","city":"Birmingham","state":"MI","zipcode":"48009","lat":42.5399,"lon":-83.2196,"list_price":725000.0,"dscr":0.36640898398719285,"cash_on_cash_return":-0.12872334252667975,"breakeven_occupancy_pct":1.9398044898831812,"rank_score":0.3113119520194392,"label":"pass","reason":"Negative cashflow in base case.","dom":122.0},{"external_id":"24505289","source":"zillow_hasdata","address":"1424 Fairway Dr","city":"Birmingham","state":"MI","zipcode":"48009","lat":42.537624,"lon":-83.23008,"list_price":775000.0,"dscr":0.34276969469769647,"cash_on_cash_return":-0.13352601215960522,"breakeven_occupancy_pct":2.047543357524028,"rank_score":0.3075974606426781,"label":"pass","reason":"Negative cashflow in base case.","dom":32.0},{"external_id":"24498880","source":"zillow_hasdata","address":"1834 Fairview Ave","city":"Birmingham","state":"MI","zipcode":"48009","lat":42.54824,"lon":-83.23698,"list_price":799000.0,"dscr":0.3324737339057757,"cash_on_cash_return":-0.13561778816994072,"breakeven_occupancy_pct":2.099258013991634,"rank_score":0.2862058745726762,"label":"pass","reason":"Negative cashflow in base case.","dom":214.0},{"external_id":"24505910","source":"zillow_hasdata","address":"522 W Lincoln Ave","city":"Birmingham","state":"MI","zipcode":"48009","lat":42.539036,"lon":-83.21939,"list_price":540000.0,"dscr":0.4919379877605829,"cash_on_cash_return":-0.10322027739258015,"breakeven_occupancy_pct":1.54117067961205,"rank_score":0.15418726794239307,"label":"pass","reason":"Negative cashflow in base case.","dom":41.0},{"external_id":"24507669","source":"zillow_hasdata","address":"986 Smith Ave","city":"Birmingham","state":"MI","zipcode":"48009","lat":42.533245,"lon":-83.20639,"list_price":699995.0,"dscr":0.3794977298276627,"cash_on_cash_return":-0.1260641711188052,"breakeven_occupancy_pct":1.8859242821759943,"rank_score":0.13964867126207026,"label":"pass","reason":"Negative cashflow in base case.","dom":18.0},{"external_id":"24497889","source":"zillow_hasdata","address":"524 Oakland Ave","city":"Birmingham","state":"MI","zipcode":"48009","lat":42.54928,"lon":-83.211716,"list_price":650000.0,"dscr":0.4086869436780228,"cash_on_cash_return":-0.12013395260625535,"breakeven_occupancy_pct":1.7781961884219117,"rank_score":0.12772897861000154,"label":"pass","reason":"Negative cashflow in base case.","dom":7.0},{"external_id":"457221409","source":"zillow_hasdata","address":"1002 Ann St","city":"Birmingham","state":"MI","zipcode":"48009","lat":42.53943,"lon":-83.20894,"list_price":599900.0,"dscr":0.44281799198318855,"cash_on_cash_return":-0.1131997276713303,"breakeven_occupancy_pct":1.6702418430457837,"rank_score":-0.02484777981584907,"label":"pass","reason":"Negative cashflow in base case.","dom":36.0},{"external_id":"2088715981","source":"zillow_hasdata","address":"444 Chester St APT 425","city":"Birmingham","state":"MI","zipcode":"48009","lat":42.54407,"lon":-83.21833,"list_price":289900.0,"dscr":0.9163384387399615,"cash_on_cash_return":-0.016997077821846916,"breakeven_occupancy_pct":1.0022608636725363,"rank_score":-0.3576836166433874,"label":"pass","reason":"Negative cashflow in base case.","dom":37.0},{"external_id":"24506172","source":"zillow_hasdata","address":"662 Purdy St APT 104","city":"Birmingham","state":"MI","zipcode":"48009","lat":42.542576,"lon":-83.21361,"list_price":399000.0,"dscr":0.6657807353150746,"cash_on_cash_return":-0.06790156394228775,"breakeven_occupancy_pct":1.2373470728648632,"rank_score":-0.46183699999004935,"label":"pass","reason":"Negative cashflow in base case.","dom":15.0},{"external_id":"24533182","source":"zillow_hasdata","address":"1308 E Lincoln Ave","city":"Birmingham","state":"MI","zipcode":"48009","lat":42.5389,"lon":-83.203316,"list_price":399999.0,"dscr":0.6641179437716465,"cash_on_cash_return":-0.0682393845236813,"breakeven_occupancy_pct":1.2394996954403272,"rank_score":-0.524912056489293,"label":"pass","reason":"Negative cashflow in base case.","dom":16.0},{"external_id":"70880855","source":"zillow_hasdata","address":"411 S Old Woodward Ave UNIT 907","city":"Birmingham","state":"MI","zipcode":"48009","lat":42.54431,"lon":-83.21112,"list_price":325000.0,"dscr":0.8173738873560455,"cash_on_cash_return":-0.03710318337548612,"breakeven_occupancy_pct":1.0778935487564103,"rank_score":-0.7573502969167543,"label":"pass","reason":"Negative cashflow in base case.","dom":100.0},{"external_id":"2106465038","source":"zillow_hasdata","address":"549 N Old Woodward Ave","city":"Birmingham","state":"MI","zipcode":"48009","lat":42.55108,"lon":-83.21862,"list_price":549900.0,"dscr":0.48308149370924675,"cash_on_cash_return":-0.10501960454297112,"breakeven_occupancy_pct":1.5625029754049373,"rank_score":-0.8904328850620307,"label":"pass","reason":"Negative cashflow in base case.","dom":25.0},{"external_id":"347219751","source":"zillow_hasdata","address":"411 S Old Woodward Ave UNIT 824","city":"Birmingham","state":"MI","zipcode":"48009","lat":42.54426,"lon":-83.21174,"list_price":645000.0,"dscr":0.41185505952048806,"cash_on_cash_return":-0.11949030323237342,"breakeven_occupancy_pct":1.7674223016578274,"rank_score":-1.765812278748061,"label":"pass","reason":"Negative cashflow in base case.","dom":25.0},{"external_id":"444451469","source":"zillow_hasdata","address":"411 S Old Woodward Ave UNIT 524","city":"Birmingham","state":"MI","zipcode":"48009","lat":42.54426,"lon":-83.21174,"list_price":649000.0,"dscr":0.409316661618975,"cash_on_cash_return":-0.12000601613594598,"breakeven_occupancy_pct":1.776041411069095,"rank_score":-1.7966835296460058,"label":"pass","reason":"Negative cashflow in base case.","dom":174.0},{"external_id":"352004180","source":"zillow_hasdata","address":"411 S Old Woodward Ave UNIT 511","city":"Birmingham","state":"MI","zipcode":"48009","lat":42.54431,"lon":-83.21112,"list_price":660000.0,"dscr":0.4024947172586588,"cash_on_cash_return":-0.12139199456429729,"breakeven_occupancy_pct":1.799743961950081,"rank_score":-2.109568590377895,"label":"pass","reason":"Negative cashflow in base case.","dom":15.0}]